{
    "activities": [{
            "name": "Family History Center",
            "description": "Find family members who need their work done. Find out your family history.",
            "phone": "(1) 801-375-5775",
            "hours": "Mon-Sat: 5am - 8pm Sun: Closed",
            "order": 0,
            "imageurl": "images/activities/family_history.jpg"

        },
        {
            "name": "Spa",
            "description": "Find family members who need their work done. Find out your family history.",
            "phone": "(1) 801-375-5775",
            "hours": "Mon-Sat: 7am - 11pm Sun: Closed",
            "order": 1,
            "imageurl": "images/activities/family_history.jpg"
        },
        {
            "name": "Breakfast",
            "description": "Find family members who need their work done. Find out your family history.",
            "phone": "(1) 801-375-5775",
            "hours": "Mon-Sun: 5am - 9am",
            "order": 2,
            "imageurl": "images/activities/family_history.jpg"
        },
        {
            "name": "Pool",
            "description": "Find family members who need their work done. Find out your family history.",
            "phone": "(1) 801-375-5775",
            "hours": "Mon-Sat: 5am - 8pm Sun: Closed",
            "order": 3,
            "imageurl": "images/activities/family_history.jpg"
        },
        {
            "name": "Gym",
            "description": "Find family members who need their work done. Find out your family history.",
            "phone": "(1) 801-375-5775",
            "hours": "Mon-Sat: 5am - 8pm Sun: Closed",
            "order": 4,
            "imageurl": "images/activities/family_history.jpg"
        },
        {
            "name": "Free Hotel Parking",
            "description": "Find family members who need their work done. Find out your family history.",
            "phone": "(1) 801-375-5775",
            "hours": "Mon-Sat: 5am - 8pm Sun: Closed",
            "order": 5,
            "imageurl": "images/activities/family_history.jpg"
        }

    ]
}